1970,1971,1972,1973,1974,1975,1976,1977,1978,1979,1980,1981,1982,1983,1984,1985,1986,1987,1988,1989,1990,1991,1992,1993,1994,1995,1996,1997,1998,1999,2000,2001,2002,2003,2004,2005,2006,2007,2008,2009,2010,2011,2012,iso3,lat,lon,name,name_de
,,,,,,,,,,,,,,,,,,,,,,,,,,,,,,,,,,,,,,110.351,250.582,491.755,461.61,455.051,AFG,33.93911,67.709953,Afghanistan,Afghanistan
,,,,,,,,,,,,,,,,,,,,,,227.177,510.298,452.549,571.409,766.63,453.078,773.102,614.085,932.46,1137.628,1147.997,1215.466,1449.753,1566.696,1615.337,1615.161,1562.54,1419.701,1231.513,1161.784,1057.901,ALB,41.153332,20.168331,Albania,Albanien
1363.93,1452.105,1239.083,1109.467,894.993,1043.546,962.264,1215.181,1194.529,1139.033,1016.27,1162.549,1339.144,1041.445,896.214,844.121,796.086,941.791,683.006,629.792,574.975,2036.628,2080.216,1752.229,2055.703,1497.727,1224.603,1599.276,1625.518,1191.374,1232.257,1089.963,1674.491,2393.326,3072.695,2502.43,1913.023,2332.49,2301.421,2216.745,2177.942,1942.212,1883.767,DZA,28.033886,1.659626,Algeria,Algerien
,,,,,,,,,,,,,,,,,,,,,,,,,,,,,,,,,,,,,,,,,,,ASM,-14.305941,-170.6962002,American Samoa,Amerikanisch-Samoa
,,,,,,,,,,,,,,,,,,,,,,,,,,,,,,,,,,,,,,,,,,,AND,42.506285,1.521801,Andorra,Andorra
,,,,,,,,,,,,,,,,,,,,,,,,,,7.156,,,,,,,,,,,,85.79,0.175,19.146,0.205,0.191,AGO,-11.202692,17.873887,Angola,Angola
,,,,,,,,,,,,,,,,24.873,22.712,22.233,24.09,20.473,4.812,4.063,17.875,17.607,4.458,17.081,24.056,34.044,32.935,32.251,43.94,27.505,26.95,26.149,26.736,27.364,26.941,26.685,25.834,25.509,24.152,22.132,ATG,17.060816,-61.796428,Antigua and Barbuda,Antigua und Barbuda
,,,,,,,,79.027,114.723,140.175,109.233,73.957,74.389,87.17,72.816,71.159,65.751,,,,,23.047,88.687,91.954,85.049,90.454,99.125,105.045,96.969,134.68,308.443,323.365,373.933,389.433,524.891,643.18,667.213,729.055,668.234,680.735,690.323,585.399,ARG,-38.416097,-63.61667199999999,Argentina,Argentina
,,,,,,,,,,,,,,,,,,,,,,,,,87.39,116.699,205.401,141.711,142.739,136.437,153.552,204.976,229.355,542.784,605.033,782.018,930.641,1110.064,828.527,1060.797,1295.137,1481.445,ARM,40.069099,45.038189,Armenia,Armenien
,,,,,,,,,,,,,,,,,,,,,4.057,3.93,5.152,5.763,5.902,16.87,3.034,4.626,9.655,12.278,15.886,13.945,13.814,16.287,14.116,14.272,15.225,16.01,23.069,16.843,14.972,15.303,ABW,12.52111,-69.968338,Aruba,Aruba
1165.611,1074.109,1249.776,1383.407,1368.007,1124.418,1151.959,1136.995,1263.352,1354.267,1580.958,1926.428,2036.821,2391.799,2604.531,2721.222,2342.337,2700.187,3396.475,4385.289,3870.604,3923.144,2882.508,1693.618,1881.766,2207.95,3004.794,3195.623,2732.03,3060.497,2968.316,2901.004,2773.662,3181.293,3543.909,3631.92,3719.878,4209.266,4925.966,1443.389,1705.559,1601.008,1655.939,AUS,-25.274398,133.775136,Australia,Australien
107.155,151.069,197.861,259.342,358.653,342.281,397.313,414.304,468.175,541.925,612.578,582.333,582.832,569.895,538.436,543.125,673.913,774.197,809.09,857.109,1036.969,1219.415,1220.115,1181.941,1245.124,2999.18,2876.749,2717.08,2769.558,2729.284,2814.72,2885.961,3106.932,3413.766,3148.875,3168.331,3136.05,3313.645,3466.873,3338.367,3185.555,3137.266,2976.148,AUT,47.516231,14.550072,Austria,Österreich
,,,,,,,,,,,,,,,,,,,,,,,,,4.012,,,9.652,82.178,89.116,169.392,284.362,233.803,284.259,842.366,965.463,1416.3,1624.474,1371.514,1525.925,1914.89,1844.118,AZE,40.143105,47.576927,Azerbaijan,Aserbaidschan
,,,,,,,,,,,,,,,,,,,,,,,,,,,,,,,,,,,,,,,,,,,BHS,25.03428,-77.39627999999999,"Bahamas, The",Bahamas
,,,,,,,,,,,,,,,,,,,,,,,,,,,,,,,,,,,,,,,,,,,BHR,26.0667,50.5577,Bahrain,Bahrain
,,,,,,70.797,274.635,350.867,467.464,847.727,991.033,1390.554,1706.718,1364.063,1355.101,1281.482,1446.159,1376.144,1383.679,1272.24,1214.66,1364.502,1548.378,1695.964,1606.933,1871.224,2303.107,2462.93,2724.769,3068.989,3423.705,4472.704,4364.968,4476.414,5241.136,6449.044,7220.064,9344.285,11328.365,11558.764,12067.828,14370.497,BGD,23.684994,90.356331,Bangladesh,Bangladesch
28.442,28.114,27.843,31.46,36.037,36.144,36.415,34.819,35.562,38.787,22.778,28.739,23.904,22.45,28.33,21.98,24.016,54.535,57.578,58.415,61.908,71.282,81.562,85.075,84.291,81.439,94.907,116.174,134.029,149.827,179.379,213.437,195.714,178.474,163.013,114.742,103.789,152.574,105.728,123.265,87.215,81.869,86.16,BRB,13.193887,-59.543198,Barbados,Barbados
,,,,,,,,,,,,,,,,,,,,,,,0.615,0.589,38.112,487.754,444.327,483.361,314.432,217.127,242.72,219.562,304.158,320.635,309.281,403.755,389.702,710.493,634.005,627.677,696.7,669.664,BLR,53.709807,27.953389,Belarus,Belarus
,,,,,,,,,,,,,,,,,,,,,,,,,,,,,,,,7314.766,8191.119,8575.199,8797.281,8897.124,9894.873,10886.702,11243.544,10968.235,10975.291,10243.788,BEL,50.503887,4.469936,Belgium,Belgien
,,,,,,,,,,,,,,48.352,56.769,54.258,37.42,30.546,40.069,30.137,24.629,29.557,25.361,19.11,18.583,24.005,34.249,35.884,39.556,41.218,49.689,44.492,46.29,43.673,55.943,77.816,82.286,81.666,86.445,84.724,77.491,84.538,BLZ,17.189877,-88.49765,Belize,Belize
,,,,32.709,69.012,105.809,136.424,170.93,199.185,192.747,161.264,97.596,116.486,114.59,108.652,113.013,116.468,128.161,166.733,165.059,186.25,203.991,167.375,131.863,133.905,119.967,107.479,138.516,115.59,135.805,136.006,119.297,75.708,78.708,209.822,266.209,309.792,262.657,161.427,196.65,184.596,183.132,BEN,9.30769,2.315834,Benin,Benin
,,,,,,,,,,,,,,,,,,,,,,,,,,,,,,,,,,,,1405.05,1597.601,1666.137,1448.756,1444.903,1356.33,1386.273,BMU,32.3078,-64.7505,Bermuda,Bermuda
,,,,,,,,,,,,,,,,,,,,,,,,,,,,,,,,,,,,2.66,3.236,3.715,5.237,8.808,10.443,10.041,BTN,27.514162,90.433601,Bhutan,Bhutan
,,,,,,5.283,6.267,6.079,2.731,3.504,12.224,7.132,13.284,15.8,16.181,17.79,16.631,8.11,15.517,7.514,5.368,5.687,6.456,6.631,9.896,18.787,128.093,135.562,144.775,197.894,220.075,176.682,216.311,263.001,419.971,727.043,1171.239,1196.094,1150.695,1015.282,1048.929,1041.836,BOL,-16.290154,-63.58865299999999,Bolivia,Bolivien
,,,,,,,,,,,,,,,,,,,,,,,,,,,,3140.239,2870.513,2507.068,2480.758,2387.754,2392.004,2588.112,2481.279,2562.751,2970.517,2858.432,2296.618,1943.3,1959.217,1903.756,BIH,43.915886,17.679076,Bosnia and Herzegovina,Bosnien und Herzegowina
,,,,,169.23,231.736,239.857,174.702,159.196,193.558,193.954,149.039,148.468,136.164,84.341,82.835,105.047,98.553,90.147,139.775,131.828,140.666,114.18,102.975,79.11,69.743,72.657,66.568,51.004,40.938,42.166,42.49,53.163,114.316,159.18,138.403,115.497,119.419,118.375,66.726,62.635,56.063,BWA,-22.328474,24.684866,Botswana,Botsuana
,,,,,321.695,305.66,212.396,343.465,199.399,277.847,322.497,150.555,77.046,125.306,107.875,88.948,81.222,57.668,219.058,935.969,1752.447,2680.335,1916.692,3047.451,4433.003,3516.56,2990.344,2518.019,2808.023,2572.695,2887.23,3832.495,3858.44,4465.487,4300.588,5053.17,4821.704,5318.66,4559.363,4260.944,4793.294,5044.496,BRA,-14.235004,-51.92528,Brazil,Brasilien
,,,,,,,,,,,,,,,,,,,,,,,,,,,,,,,,,,,,,,,,,,,BRN,4.535277,114.727669,Brunei Darussalam,Brunei Darussalam
,,,,,,,,,,,,,,,,,,,,,,,,,,57.751,76.343,77.712,64.135,90.837,1344.071,1841.865,2350.226,2151.848,1959.32,2039.491,1863.3,2005.278,1714.003,1419.999,1483.178,1406.264,BGR,42.733883,25.48583,Bulgaria,Bulgarien
,,,,159.239,186.954,192.54,209.427,237.309,299.561,376.548,398.858,291.342,300.781,245.813,339.595,426.118,335.1,337.048,283.423,228.149,178.351,192.778,180.176,118.401,,,,,,105.031,81.203,91.916,73.506,55.48,68.807,80.722,92.777,103.825,119.078,148.721,139.605,133.229,BFA,12.238333,-1.561593,Burkina Faso,Burkina Faso
,,,,,,,,,,,,,,,,,,,,,,,,,,,,,,,,,,0.052,0.087,0.014,0.209,3.81,30.4,36.752,45.463,43.077,BDI,-3.373056,29.918886,Burundi,Burundi
,,,,,,,,,,,,,,,,,,,,,,13.469,14.602,16.652,15.512,16.142,17.652,183.512,160.528,188.0,215.557,218.546,189.094,221.584,242.59,353.422,385.928,335.878,360.809,338.907,245.094,262.429,KHM,12.565679,104.990963,Cambodia,Kambodscha
,,,,,,,,,9.502,73.573,74.655,50.237,74.39,40.397,32.956,52.782,24.709,22.205,59.455,37.557,11.585,37.429,31.266,16.801,15.03,18.661,40.111,57.526,39.543,47.042,33.041,55.394,103.272,129.14,93.839,154.4,184.112,174.394,207.263,122.36,114.859,111.628,CMR,7.369721999999999,12.354722,Cameroon,Kamerun
,,,,,,,,,,,,,,,,,,,,,,,,,,,,,,,,,,,,,,,,,,,CAN,56.130366,-106.346771,Canada,Kanada
,,,,,,,84.546,71.74,65.571,100.287,82.177,68.283,54.591,56.164,55.979,61.285,70.443,77.027,87.076,96.603,98.463,113.758,117.57,125.926,141.563,139.646,115.294,113.083,119.292,135.558,131.686,133.145,148.438,141.59,165.997,162.325,152.794,162.115,148.747,141.198,178.108,180.706,CPV,15.1217288,-23.6050817,Cape Verde,Kap Verde
,,,,,,,,,,,,,,,,,,,,,,,,,,,,,,,,,,,,,,,,,,,CYM,19.3133,-81.2546,Cayman Islands,Kaimaninseln
,,,,,,,6.845,3.004,,0.095,0.029,0.096,0.056,,,,,,0.04,0.132,0.224,,0.244,,,,,,,,,,,,,,,,,,,,CAF,6.611110999999999,20.939444,Central African Republic,Zentralafrikanische Republik
,,,,,,,,,,,,,,,0.09,2.735,2.619,0.623,1.448,,,0.305,0.494,1.067,,,,,,,,,,,,,,,,,,,TCD,15.454166,18.732207,Chad,Tschad
,,,,,,,,,,,,,,,,,,,,,,,,,,,,,,,,,,,,,,,,,,,,,,Channel Islands,
,,,,,,,,,,,,,2.657,2.724,2.697,0.889,0.967,0.18,2.373,0.653,,,,,,,,,,20.746,19.359,19.405,16.138,14.489,15.792,2.971,2.751,2.613,4.738,3.409,3.2,3.248,CHL,-35.675147,-71.542969,Chile,Chile
,,,,,,,,,,,,1630.534,1439.957,1097.794,730.852,990.171,440.998,588.106,344.761,320.059,615.44,926.938,970.458,1262.894,1191.763,2617.896,7492.245,4809.784,5559.916,7521.199,10636.896,16107.327,19888.497,24454.783,28520.357,32558.272,42013.66,49636.616,51609.539,55682.803,61365.29,61575.575,CHN,35.86166,104.195397,China,China
168.067,134.628,124.454,146.959,159.855,90.231,192.453,284.563,230.456,275.881,265.332,416.125,229.794,191.286,212.476,296.656,925.061,1208.664,825.374,852.501,808.559,1390.906,958.545,718.875,1426.983,1090.021,1047.921,1167.048,1235.892,1978.664,2511.501,3345.305,3880.974,4206.809,3984.149,4064.152,4667.063,4976.382,5104.626,4500.5,4322.981,4204.909,4200.513,COL,4.570868,-74.297333,Colombia,Kolumbien
,,,,,,,,,,4.052,3.178,6.254,4.88,5.829,11.406,10.595,13.153,13.305,14.398,16.229,15.939,23.945,24.638,22.448,16.332,,,,,,,,,,,,,,,,,,COM,-11.6455,43.3333,Comoros,Komoren
,,,,,,,,,,,,,,,,,,,,,,,,,,,,,,,,,,,,,,,,,,,COD,-4.038333,21.758664,"Congo, Dem. Rep.",Demokratische Republik Kongo
,,,,,,,,7.597,8.436,7.95,,,,,,0.096,0.019,7.987,,,,,,,5.669,10.881,6.902,2.971,17.594,16.149,19.716,1.841,16.942,18.679,13.818,15.68,16.299,,,,,,COG,-0.228021,15.827659,"Congo, Rep.",Republik Kongo
,,,,,,,6.964,8.815,7.375,10.263,6.242,14.791,14.081,17.434,19.417,17.123,15.278,16.399,18.255,19.601,21.156,21.251,24.593,25.199,164.884,181.979,196.288,196.442,190.745,212.097,322.83,392.248,438.84,399.134,510.625,609.739,679.855,632.074,552.484,587.781,540.513,533.163,CRI,9.748916999999999,-83.753428,Costa Rica,Costa Rica
,,,,,47.594,53.694,55.273,67.348,77.044,80.563,80.398,76.36,71.81,67.952,64.831,79.623,83.008,76.841,64.663,72.594,65.478,,88.478,162.702,202.002,204.569,205.761,218.628,207.451,186.113,188.718,187.938,193.659,198.849,198.219,198.148,203.204,207.897,339.268,397.867,373.478,332.267,CIV,7.539988999999999,-5.547079999999999,Côte d'Ivoire,Côte d'Ivoire
,,,,,,,,,,,,,,,,,,,,,,,353.564,553.358,727.692,929.465,931.785,958.918,840.166,1000.296,1215.147,686.612,706.509,830.216,864.015,1020.553,1244.399,1349.983,1368.116,1371.51,1378.442,1419.736,HRV,45.1,15.2,Croatia,Kroatien
,,,,,,,,,,,,,,,,,,,,,,,,,,,,,,,,,,,,,,,,,,,CUB,21.521757,-77.781167,Cuba,Kuba
,,,,,,,,,,,,,,,,,,,,,,,,,,,,,,,,,,,,,,,,,,,CUW,12.16957,-68.99002,Curaçao,Curaçao
,,,,,,119.506,177.455,208.324,208.844,235.387,215.996,210.578,207.842,200.466,192.837,127.034,123.405,128.605,125.851,128.371,103.682,121.509,122.06,119.76,65.027,68.638,71.93,74.036,74.994,100.244,170.813,96.446,115.262,305.933,230.175,200.977,189.378,267.009,161.814,151.768,131.278,112.207,CYP,35.126413,33.429859,Cyprus,Zypern
,,,,,,,,,,,,,,,,,,,,,,,212.216,241.686,254.783,155.167,128.675,536.144,479.834,462.765,417.635,523.466,681.65,1017.399,1856.072,2096.898,2238.697,2265.566,2236.805,2200.595,1849.199,2047.465,CZE,49.81749199999999,15.472962,Czech Republic,Tschechische Republik
,,,,,,,,,,,,,,,,,,,,,,694.781,691.525,646.536,699.287,,1286.043,1173.891,1211.293,1039.635,1136.527,1228.262,1286.341,1343.236,1052.916,1167.384,905.314,1353.941,1312.484,1285.036,1273.305,1248.582,DNK,56.26392,9.501785,Denmark,Dänemark
,,,,,,,,,,,,,,,,,,,,,20.716,19.637,29.258,19.967,15.899,15.23,17.31,18.31,17.438,19.168,19.433,23.405,33.736,30.903,31.401,33.83,31.511,31.698,34.959,34.773,32.36,32.216,DJI,11.825138,42.590275,Djibouti,Dschibuti
,,,,,,4.907,11.142,17.629,23.764,21.527,22.107,19.81,24.973,29.42,29.935,17.131,22.777,29.034,24.407,22.741,7.83,7.743,21.114,19.577,17.964,19.137,20.955,22.423,23.593,25.437,27.89,27.242,24.366,28.916,30.34,30.146,28.46,27.284,27.403,27.972,26.677,26.768,DMA,15.414999,-61.37097600000001,Dominica,Dominica
162.25,88.469,131.004,118.343,118.742,109.847,422.642,430.362,400.0,440.59,458.323,475.683,501.849,518.066,558.431,652.643,501.223,528.138,520.454,548.558,514.211,520.208,518.707,1165.232,1175.214,1122.225,1339.688,1723.295,2155.804,2459.81,2868.195,3224.012,3433.959,3180.252,3124.157,3303.207,3664.805,3770.382,3832.567,3733.283,3700.543,3682.2,3582.596,DOM,18.735693,-70.162651,Dominican Republic,Dominikanische Republik
,,,,,,12.453,,,,,,,,,,6.671,5.802,3.604,1.825,83.306,88.412,112.242,311.897,407.059,516.341,680.434,977.248,1224.843,1643.07,2062.55,2310.978,2250.427,2233.899,2295.83,2988.338,3485.99,3676.244,3228.086,2952.984,2768.752,2680.596,2740.741,ECU,-1.831239,-78.18340599999999,Ecuador,Ecuador
,,,,,,,3230.032,5389.961,6046.357,6748.436,5671.93,6442.533,9739.259,10794.645,8661.581,5572.922,6970.191,6793.245,6012.148,6996.896,6400.379,9134.99,8705.81,5411.141,4313.988,4323.685,5577.852,5167.919,4879.053,4448.604,4736.294,4527.543,4049.371,4172.745,6094.874,6332.581,8423.149,9086.538,7698.503,13266.326,14324.3,20968.264,EGY,26.820553,30.802498,"Egypt, Arab Rep.",Ägypten
,,,,,,40.0,188.022,206.201,273.149,122.753,188.505,296.355,306.695,433.451,423.84,349.769,360.936,379.78,434.137,598.299,750.292,1039.073,1223.098,1431.965,1422.706,1508.263,1809.726,2054.602,2092.143,2753.705,3133.236,3057.433,2902.626,3202.723,3680.394,4140.328,4083.563,3927.832,3666.028,3674.605,3666.8,4052.828,SLV,13.794185,-88.89653,El Salvador,El Salvador
,,,,,,,,,,,,,,,,,,,,,,1.973,,,0.134,0.229,,,,,,,,,,,,,,,,,GNQ,1.650801,10.267895,Equatorial Guinea,Äquatorialguinea
,,,,,,,,,,,,,,,,,,,,,,,,,,,,4.128,5.48,5.124,,,,,,,,,,,,,ERI,15.179384,39.782334,Eritrea,Eritrea
,,,,,,,,,,,,,,,,,,,,,,,,4.281,1.717,2.344,2.621,4.055,3.491,6.321,17.929,29.967,70.032,208.442,320.819,477.51,452.182,378.619,329.805,341.044,406.584,402.99,EST,58.595272,25.013607,Estonia,Estland
,,,,,,,15.475,21.732,23.752,30.594,27.264,26.923,29.263,31.32,38.303,30.187,16.536,20.372,11.817,8.522,15.406,22.477,28.251,36.289,36.587,22.283,13.929,41.885,50.867,82.918,29.793,51.623,63.553,167.053,210.786,204.555,393.705,404.156,281.686,367.69,513.238,535.771,ETH,9.145000000000001,40.489673,Ethiopia,Äthiopien
,,,,,,,,,,,,,,,,,,,,,,,,,,,,74.344,75.464,67.025,63.511,62.207,60.695,61.476,97.525,105.817,120.121,142.736,149.393,155.953,146.393,149.625,FRO,61.89263500000001,-6.911805999999999,Faeroe Islands,Färöer
,,,,,,,,,9.805,12.241,24.193,21.358,21.212,28.911,74.578,66.15,52.239,40.824,41.966,35.848,30.28,33.954,40.176,43.682,44.026,46.509,53.299,39.75,36.828,68.638,135.423,155.633,169.895,216.377,224.823,219.495,176.568,129.004,165.618,168.27,157.955,168.385,FJI,-17.713371,178.065032,Fiji,Fidschi
,,,,,72.636,89.841,162.618,199.022,249.77,265.967,249.051,284.07,258.178,134.61,137.194,164.652,150.341,189.773,129.337,102.717,159.749,154.315,118.431,98.576,99.303,202.422,354.94,575.697,668.999,737.379,798.069,745.982,719.303,832.409,841.38,820.646,843.153,948.678,941.877,902.976,889.17,871.823,FIN,61.92410999999999,25.748151,Finland,Finnland
,,,,,2463.562,2464.216,4389.646,4808.882,5248.137,3605.42,3324.577,3533.771,3397.818,3438.15,3757.973,4493.933,4781.496,6160.304,5885.14,6590.59,7293.2,7801.575,7734.293,5826.574,6204.864,6310.036,14696.873,15367.359,14036.021,13430.377,14956.145,16218.603,15468.726,15334.868,14510.931,15483.76,15892.395,17346.291,17445.62,17999.144,19482.59,19880.209,FRA,46.227638,2.213749,France,Frankreich
,,,,,,,,,,,,,,,,,,,,,,,,,,,,,,,,638.463,695.462,747.393,676.957,738.904,757.797,797.512,783.63,745.366,754.855,771.52,PYF,-17.679742,-149.406843,French Polynesia,Französisch-Polynesien
,,,,,,,,0.269,0.257,0.118,0.479,0.161,0.767,0.249,0.36,0.514,0.579,0.242,0.286,,,,,,5.98,7.971,9.272,8.531,6.405,9.438,8.726,4.455,8.191,8.559,13.397,,,,,,,,GAB,-0.803689,11.609444,Gabon,Gabun
,,,,,,,,1.049,1.345,,,0.496,1.863,,,,,,,,,,,,,,,,,,,,73.947,75.879,72.041,75.777,61.242,67.738,85.928,123.255,90.667,91.224,GMB,13.443182,-15.310139,"Gambia, The",Gambia
,,,,,,,,,,,,,,,,,,,,,,,,,,,428.485,571.845,544.111,326.744,360.472,360.647,322.728,378.76,420.474,576.685,765.19,765.124,769.178,858.716,1109.756,1084.174,GEO,42.315407,43.35689199999999,Georgia,Georgien
,1280.848,1341.99,1547.405,1583.548,1646.669,1698.078,1865.144,2222.887,2319.697,5957.9,5507.456,5894.787,5628.433,5362.24,5455.565,6179.832,6927.291,6909.43,6848.914,7964.819,7614.465,7363.378,6753.299,6497.055,6047.868,6045.609,5820.472,6538.586,6528.936,5683.295,6398.51,7331.621,7909.572,8219.869,8422.061,8991.233,10884.741,11676.103,13447.799,13816.407,14885.922,13956.614,DEU,51.165691,10.451526,Germany,Deutschland
,,,,,,,,,3.476,2.253,3.641,3.962,1.328,12.803,11.327,1.334,1.354,10.813,10.953,9.801,9.788,10.925,15.524,23.136,23.014,38.269,39.228,45.238,46.298,50.533,74.685,68.106,89.032,102.887,120.487,125.063,129.127,131.798,123.243,144.724,151.601,154.847,GHA,7.946527,-1.023194,Ghana,Ghana
,,,,,,3037.736,3272.981,3006.079,3225.895,2801.001,3040.312,3011.094,2561.105,2574.23,2176.375,2150.322,2720.944,3130.294,2531.946,2967.984,3430.692,3787.788,4080.848,4252.874,4394.223,4284.72,4619.795,,3444.578,3421.931,3276.395,2596.139,2138.667,1551.209,1482.151,1832.965,2732.667,2807.938,2175.432,1597.106,1186.194,632.024,GRC,39.074208,21.824312,Greece,Griechenland
,,,,,,,,,,,,,,,,,,,,,,,,,,,,,,,,,,,,,,,,,,,GRL,71.706936,-42.604303,Greenland,Grönland
,,,,,,,,,,,,,,,,37.309,43.19,42.383,30.763,29.36,13.069,12.865,28.219,38.549,50.489,57.442,62.378,64.992,67.081,72.335,75.996,74.433,66.421,90.173,62.641,64.092,60.304,57.876,57.481,56.922,54.922,59.819,GRD,12.1165,-61.67899999999999,Grenada,Grenada
,,,,,,,,,,,,,,,,,,,,,,,,,,,,,,,,,,,,,,,,,,,GUM,13.444304,144.793731,Guam,Guam
,,,,,,,48.747,65.653,64.463,65.582,63.719,28.262,10.361,9.262,2.697,1.557,0.193,82.357,155.166,193.891,282.444,345.106,370.12,419.246,478.069,522.405,615.57,700.046,702.157,929.964,1030.997,2504.213,2936.214,3281.914,3725.219,4396.507,4660.799,4661.058,4327.878,4508.15,4508.126,5031.059,GTM,15.783471,-90.23075899999999,Guatemala,Guatemala
,,,,,,,,,,,,,,,,0.156,0.135,48.135,,,,,,0.722,0.99,1.492,2.233,7.637,9.072,1.819,14.179,23.772,151.868,52.011,50.498,64.259,165.827,75.031,68.58,64.334,78.31,76.426,GIN,9.945587,-9.696645,Guinea,Guinea
,,,,,,,,,,,,,,,,,,2.703,2.191,1.633,,,,,,2.783,3.018,,,,16.314,27.592,31.628,34.598,24.173,30.323,47.346,51.694,52.604,48.888,45.891,43.116,GNB,11.803749,-15.180413,Guinea-Bissau,Guinea-Bissau
,,,,,,,,,,,,6.075,3.1,7.109,,,,,,,,1.526,1.86,1.975,2.273,20.317,22.631,21.469,30.915,42.583,36.278,79.812,135.804,191.118,244.52,259.121,311.031,291.008,287.461,397.461,373.096,405.5,GUY,4.860416,-58.93018,Guyana,Guyana
,109.213,123.253,111.144,95.968,232.326,281.887,261.212,231.003,231.576,266.433,329.311,256.313,238.789,245.165,258.306,234.423,218.836,223.644,224.169,,,,,,,,,501.917,636.48,901.575,1014.446,1057.371,1109.136,1163.552,1197.952,1262.915,1344.58,1431.599,1481.153,1570.048,1551.367,1660.961,HTI,18.971187,-72.285215,Haiti,Haiti
,,,,3.545,2.942,3.208,3.656,3.799,4.097,4.005,4.551,3.962,4.782,5.312,5.663,4.67,65.171,75.329,88.719,102.744,130.407,167.614,98.063,131.152,165.82,218.898,286.663,345.039,495.099,754.89,1013.128,1279.859,1208.23,1467.818,2208.0,2812.96,2913.012,2986.874,2704.738,2828.376,2874.664,3037.013,HND,15.199999,-86.241905,Honduras,Honduras
,,,,,,,,,,,,,,,,,,,,,,,,,,,,235.609,196.734,211.415,248.65,188.622,163.691,299.596,360.497,349.375,348.627,371.391,374.494,361.744,356.905,385.811,HKG,22.396428,114.109497,"Hong Kong SAR, China",Hongkong
,,,,,,,,,,,,,,,,,,,,,,,,,202.698,234.669,321.749,337.986,321.589,437.767,481.567,436.603,403.261,2144.382,2345.986,2470.567,2542.79,2622.64,2300.896,2303.682,2440.79,2235.883,HUN,47.162494,19.503304,Hungary,Ungarn
,,,,,,5.283,5.919,5.471,4.644,3.755,8.062,3.17,6.111,18.524,13.754,16.9,28.428,40.368,55.13,101.698,103.123,95.515,88.945,70.007,83.721,102.358,105.118,116.194,128.533,136.631,120.985,114.835,131.779,140.036,106.585,103.8,45.439,36.994,25.285,26.495,26.962,36.005,ISL,64.963051,-19.020835,Iceland,Island
,,,,,1686.48,2423.939,3253.537,3540.355,3925.208,6901.065,5985.476,6914.082,7067.167,6251.023,6659.14,4980.883,5154.543,4172.456,4771.531,3893.728,5192.784,4336.165,5414.676,8630.555,8321.739,12198.293,15586.851,14536.575,16776.174,20095.876,23219.487,24625.565,28718.751,23420.406,26876.931,33666.4,40947.03,52233.776,53266.25,57563.344,63011.07,70880.926,IND,20.593684,78.96288,India,Indien
,,,,,,,,,,,,,26.567,144.375,164.509,157.883,166.312,178.411,304.856,271.153,205.242,342.712,531.817,661.656,870.554,1107.709,1093.844,1469.361,1672.448,1856.497,1701.643,1970.137,2035.981,2331.145,6583.601,6799.379,6793.201,7100.963,7314.426,7367.691,6923.971,7366.004,IDN,-0.789275,113.921327,Indonesia,Indonesien
,,,,,,,,,,,,,,,,,,,,,1894.537,1789.883,2305.564,1768.347,2139.61,915.669,603.5,1042.785,766.099,836.063,1109.484,1331.768,1611.05,1289.033,1253.644,1226.236,1226.758,1165.343,1154.086,1258.216,1329.781,1406.678,IRN,32.427908,53.688046,"Iran, Islamic Rep.",Iran
,,,,,,,,,,,,,,,,,,,,,,,,,,,,,,,,,,,863.824,462.096,3.411,74.101,163.67,188.239,386.2,389.591,IRQ,33.223191,43.679291,Iraq,Irak
,,,,,,,,,,,,,,,,,,,,466.634,438.291,482.363,457.001,476.9,463.973,504.324,473.99,419.667,445.159,392.932,396.941,494.688,461.068,516.997,622.656,640.61,648.608,661.88,616.751,701.143,755.494,758.463,IRL,53.41291,-8.24389,Ireland,Irland
,,,,,,,,,,,,,,,,,,,,,,,,,,,,,,,,,,,,,,,,,,,IMN,54.236107,-4.548056,Isle of Man,Isle of Man
465.417,854.179,1037.118,877.712,575.986,396.234,271.698,369.081,589.666,915.051,1053.817,1383.095,740.359,644.527,689.186,564.725,997.776,1186.618,976.753,1430.632,1326.201,1384.275,1736.306,1941.746,2361.185,937.684,889.507,1003.018,683.331,733.223,624.396,811.29,640.689,578.911,892.206,1032.556,1122.148,1145.891,1486.309,1364.273,1503.462,1709.1,1329.15,ISR,31.046051,34.851612,Israel,Israel
7963.801,8340.509,8473.945,7205.176,5380.501,6285.317,5291.033,7529.434,9108.262,10102.886,10045.6,9185.514,9323.494,8981.384,8921.071,8712.287,9786.86,8630.164,8703.552,9274.268,8288.981,5839.821,4444.997,4104.833,3565.235,3160.875,3596.805,3444.928,3244.093,3013.96,3020.722,3685.875,3541.205,2927.058,2715.442,2911.438,3117.838,3480.916,5805.303,5621.626,7247.486,7025.344,7385.101,ITA,41.87194,12.56738,Italy,Italien
,,,,,,333.962,284.471,210.03,245.561,239.049,278.283,293.45,223.698,201.308,392.395,247.943,233.03,277.347,380.613,373.571,286.233,322.658,367.661,769.378,873.362,993.738,1101.086,1161.785,1191.374,1390.891,1721.653,1972.3,1912.473,2027.477,2166.945,2312.791,2358.434,2279.044,2054.942,2177.015,2122.725,2205.321,JAM,18.109581,-77.297508,Jamaica,Jamaika
,,,,,,,313.37,395.137,437.039,350.438,494.148,554.675,478.215,572.051,,,,,,,802.201,870.992,1193.583,1288.163,1539.134,1708.515,2029.888,1900.077,1672.697,2143.015,3227.341,2849.99,1474.175,1162.354,1312.092,1639.413,1735.48,2015.903,1912.815,1920.008,2298.198,2788.529,JPN,36.204824,138.252924,Japan,Japan
,,113.1,220.608,331.517,653.868,1550.43,1635.466,1582.299,1641.489,1987.134,2686.453,2858.65,2947.944,3368.78,2756.681,2632.465,1813.87,1612.868,1144.708,815.529,707.146,1262.585,1598.755,1612.0,1927.276,2368.263,2744.267,2490.165,2641.565,2878.075,3272.058,3353.707,3010.296,2910.722,3036.586,3426.042,3778.341,3965.33,3873.202,3878.303,3452.817,3723.306,JOR,30.585164,36.238414,Jordan,Jordanien
,,,,,,,,,,,,,,,,,,,,,,,,,155.255,123.991,89.771,110.873,96.516,189.99,278.628,320.703,201.726,207.139,216.751,221.477,245.351,200.15,280.842,309.617,240.097,165.414,KAZ,48.019573,66.923684,Kazakhstan,Kasachstan
,,,,,22.439,27.06,12.621,38.538,48.233,32.385,19.26,18.621,15.168,15.875,17.069,22.339,20.332,21.731,20.498,12.831,6.061,124.958,,105.164,117.007,121.824,764.356,815.692,882.0,,82.828,89.426,90.051,469.412,516.267,677.827,709.878,697.447,679.941,730.539,934.149,1254.723,KEN,-0.023559,37.906193,Kenya,Kenia
,,,,,,,,,4.274,3.99,5.081,6.698,5.984,5.976,10.937,9.146,9.864,7.309,7.649,8.402,9.564,9.015,9.379,10.167,,,,,,,,,,,,,,,,,,,KIR,1.8668577,-157.3599202,Kiribati,Kiribati
,,,,,,,,,,,,,,,,,,,,,,,,,,,,,,,,,,,,,,,,,,,PRK,40.339852,127.510093,"Korea, Dem. Rep.",Nordkorea
,,,,,,177.358,358.635,319.149,275.881,1408.26,1796.099,2071.58,2445.537,2575.592,3122.438,3861.686,4004.254,4513.426,3992.516,3941.522,4227.344,4379.976,4437.135,4635.426,4667.692,5056.36,6584.339,8587.333,7095.762,7577.445,7860.257,8653.991,8621.581,8206.095,7906.706,7342.918,7494.224,11216.66,9596.856,9294.876,10390.9,11285.396,KOR,35.907757,127.766922,"Korea, Rep.",Südkorea
,,,,,,,,,,,,,,,,,,,,,,,,,,,,,,,,,,779.408,856.687,919.49,1014.522,1092.768,1167.312,1083.894,1141.184,1064.925,XXK,42.6026359,20.902977,Kosovo,Kosovo
,,,,,,,,,,,,,,,,,,,,,,,,,,,,,,,,,,,,,,,,,,,KWT,29.31166,47.481766,Kuwait,Kuwait
,,,,,,,,,,,,,,,,,,,,,,,2.744,1.477,1.662,3.395,4.134,37.871,27.865,13.796,18.08,57.459,106.889,235.664,391.113,571.72,784.871,1287.139,1067.103,1358.714,1723.679,2068.52,KGZ,41.20438,74.766098,Kyrgyz Republic,Kirgisistan
,,,,,,,,,,,,,,7.627,9.439,8.228,6.769,12.074,15.152,17.805,16.419,16.163,18.598,14.736,29.553,63.178,61.557,76.675,0.905,1.029,1.13,1.141,1.047,1.004,1.008,5.035,6.826,18.577,40.461,44.502,110.298,119.774,LAO,19.85627,102.495496,Lao PDR,Laos
,,,,,,,,,,,,,,,,,,,,,,,,,,56.737,68.963,75.755,73.292,112.775,182.853,216.588,236.734,286.535,462.828,572.837,607.548,628.449,636.481,653.563,695.2,747.967,LVA,56.879635,24.603189,Latvia,Lettland
,,,,,,,,,,,,,,,,,,,,,,,,,,,,,,,,3981.927,6486.597,6984.057,5981.913,6181.366,6347.497,7504.797,8138.407,8152.691,7530.838,7636.748,LBN,33.854721,35.862285,Lebanon,Libanon
,,,,,477.452,520.755,575.0,539.347,580.346,658.859,755.758,919.507,1003.941,878.66,603.878,568.044,682.822,669.416,666.226,698.918,690.052,681.58,615.978,471.045,548.984,539.456,571.434,451.824,416.133,744.961,652.772,608.267,761.583,783.358,728.083,729.4,702.115,601.86,589.993,649.972,649.335,615.159,LSO,-29.609988,28.233608,Lesotho,Lesotho
,,,,,,,,,,,,,,,,,,,,,,,,,,,,,,,,,,73.004,38.696,93.649,68.189,60.746,27.045,33.496,359.994,380.611,LBR,6.428055,-9.429499000000002,Liberia,Liberia
,,,,,,,,,,,,,,,,,,,,,,,,,,,,,,14.038,16.268,10.955,10.941,12.491,18.222,19.011,,,,,,,LBY,26.3351,17.228331,Libya,Libyen
,,,,,,,,,,,,,,,,,,,,,,,,,,,,,,,,,,,,,,,,,,,LIE,47.166,9.555373,Liechtenstein,Liechtenstein
,,,,,,,,,,,,,,,,,,,,,,,0.053,1.095,1.464,3.583,4.417,5.252,4.517,77.901,128.762,170.967,157.049,405.317,649.059,1181.185,1576.232,1636.505,1334.561,1782.907,1956.391,1417.433,LTU,55.169438,23.881275,Lithuania,Litauen
,,,,,,,,,,,,,,,,,,,,,,,,,975.887,988.886,979.208,1006.877,982.606,902.407,937.8,1267.425,1397.583,1411.413,1540.229,1616.705,1597.676,1694.523,1756.84,1746.424,1756.215,1677.996,LUX,49.815273,6.129582999999999,Luxembourg,Luxemburg
,,,,,,,,,,,,,,,,,,,,,,,,,,,,,,,,325.658,220.392,443.551,713.725,607.707,438.678,529.974,780.438,121.846,114.377,124.023,MAC,22.198745,113.543873,"Macao SAR, China",Macau
,,,,,,,,,,,,,,,,,,,,,,,,,,94.322,117.215,96.975,115.423,126.222,119.472,165.732,237.502,266.071,275.229,316.726,379.591,424.985,410.416,413.264,433.726,401.563,MKD,41.608635,21.745275,"Macedonia, FYR",Mazedonien
,,,,1.841,1.831,2.685,1.134,1.212,0.128,0.948,0.574,0.302,0.309,15.353,12.335,13.053,8.989,7.262,17.783,12.856,20.731,22.77,20.817,18.78,18.462,15.759,18.383,17.577,17.527,17.579,17.686,45.89,22.199,14.373,13.324,,,,,,,,MDG,-18.766947,46.869107,Madagascar,Madagaskar
,,,,,,,,,,,,,,,,,,,,,,,,1.13,0.7,0.901,1.124,1.145,1.126,1.165,1.215,1.32,19.026,22.884,27.371,17.574,23.12,17.427,17.936,17.831,17.412,16.368,MWI,-13.254308,34.301525,Malawi,Malawi
,,,,,16.389,14.847,14.147,13.124,12.481,,,,,,,,94.404,179.608,253.386,302.55,205.524,229.12,269.898,175.762,154.849,228.435,293.363,290.729,486.947,534.033,597.21,680.751,780.98,1001.584,1356.867,1622.477,1712.22,1389.079,1217.694,1174.397,1197.789,1299.974,MYS,4.210484,101.975766,Malaysia,Malaysia
,,,,,,,,,,,,,6.642,6.81,,2.224,1.934,2.163,2.556,2.777,2.842,2.394,1.998,3.203,3.164,3.768,3.7,3.757,3.313,3.427,2.966,3.149,2.752,3.622,2.742,3.327,8.729,6.549,4.857,3.366,2.998,3.021,MDV,1.9772469,73.5361035,Maldives,Malediven
,,,,,91.436,66.959,92.263,134.697,147.668,148.686,123.946,104.091,96.909,88.525,180.687,152.183,170.519,131.961,138.653,174.646,146.849,174.425,193.079,152.059,149.921,154.077,138.39,129.524,130.159,114.123,143.431,215.42,210.338,194.184,215.229,251.72,378.393,450.443,488.558,503.613,472.741,454.267,MLI,17.570692,-3.996166,Mali,Mali
,110.903,97.275,96.267,82.756,85.643,121.604,126.147,80.447,78.485,87.682,73.309,103.821,113.655,100.446,93.698,101.851,88.999,93.141,127.813,95.086,66.337,45.63,39.125,34.7,25.606,27.724,24.961,31.719,40.97,31.156,23.085,36.551,36.663,38.895,40.777,42.764,54.844,56.271,56.97,38.629,37.043,33.881,MLT,35.937496,14.375416,Malta,Malta
,,,,,,,,,,,,,,,,,,,,,,,,,,,,,,,,,,,,,,,,,,,MHL,7.131474,171.184478,Marshall Islands,Marshallinseln
,,,,,1.729,1.593,1.069,1.712,6.428,13.957,9.639,6.123,3.248,2.604,2.134,4.126,12.957,16.762,8.726,22.392,18.534,75.028,3.486,7.215,7.286,6.075,4.064,3.385,,,,,,,,,,,,,,,MRT,21.00789,-10.940835,Mauritania,Mauretanien
,,,,,,,,,,,,,,,,,,,,,,,,173.887,176.518,222.655,253.47,276.031,268.436,276.088,349.764,336.463,294.037,268.549,261.176,255.466,236.55,224.707,227.387,241.195,249.026,252.035,MUS,-20.348404,57.55215200000001,Mauritius,Mauritius
,,,,,,,,,483.474,2600.751,3172.952,3238.246,3695.537,4252.247,4358.145,3938.181,3838.716,4395.387,5098.576,5060.438,4783.707,5537.264,6115.893,6074.005,5841.294,6887.003,8367.23,9969.707,10026.58,11737.238,16506.04,17260.482,22775.829,24808.579,27626.143,31538.512,29574.06,27217.275,23770.577,23522.168,23588.48,23731.559,MEX,23.634501,-102.552784,Mexico,Mexiko
,,,,,,,,,,,,,,,,,,,,,,,,,,,,,,,,,,,,,,,,,,,FSM,6.8874574,158.2150717,"Micronesia, Fed. Sts.",Mikronesien
,,,,,,,,,,,,,,,,,,,,,,,,,1.364,121.305,172.616,190.63,168.693,278.584,395.835,506.635,665.522,880.889,1117.966,1404.135,1648.399,1982.964,1303.715,1452.53,1611.65,1809.497,MDA,47.411631,28.369885,Moldova,Moldawien
,,,,,,,,,,,,,,,,,,,,,,,,,,,,,,,,,,,,,,,,,,,MCO,43.73841760000001,7.424615799999999,Monaco,Monaco
,,,,,,,,,,,,,,,,,,,,,,,,,,,,8.434,10.858,18.718,40.67,88.125,175.875,252.935,219.096,215.53,195.874,235.505,214.944,294.576,279.425,294.445,MNG,46.862496,103.846656,Mongolia,Mongolei
,,,,,,,,,,,,,,,,,,,,,,,,,,,,,,,,,,,,,215.392,311.175,325.138,320.428,343.132,334.392,MNE,42.708678,19.37439,Montenegro,Montenegro
,,,,,2091.039,2064.694,2052.791,2319.755,2590.592,2638.155,2636.835,2243.987,2436.207,2380.078,2622.768,3112.401,3072.72,2351.13,2439.88,3277.274,3142.312,3248.199,3011.204,2692.891,2633.726,3013.462,2856.57,3083.487,2923.103,3370.798,5304.897,4502.586,4942.446,5272.091,5575.246,6477.39,7405.075,7206.703,6750.879,6841.954,7256.318,7045.976,MAR,31.791702,-7.092619999999999,Morocco,Marokko
,,,,,,,,,,133.667,167.75,167.723,199.787,155.271,110.032,111.185,112.164,129.032,130.157,114.995,87.78,86.8,91.608,80.754,79.032,84.887,95.957,71.001,57.307,57.401,68.028,82.245,95.02,71.844,71.54,95.096,109.347,120.97,119.657,140.475,156.831,101.306,MOZ,-18.665695,35.529562,Mozambique,Mosambik
,,,,,,,,,,,,,,,,,11.427,12.203,16.768,9.655,2.426,0.414,43.415,61.249,107.749,170.401,222.097,208.285,203.671,159.34,188.967,164.923,115.443,145.607,157.299,136.844,89.129,57.216,58.654,122.355,127.076,578.174,MMR,21.913965,95.956223,Myanmar,Myanmar
,,,,,,,,,,,,,,,,,,,,21.97,21.784,23.508,22.343,21.954,20.868,18.806,20.071,17.198,15.426,14.741,14.341,12.456,16.708,19.032,21.943,20.088,17.776,14.571,14.65,16.9,16.046,16.878,NAM,-22.95764,18.49041,Namibia,Namibia
,,,,,,,,,,,,,,,,,,,,,,,84.269,73.856,75.986,61.453,74.62,103.519,125.868,173.917,239.117,1061.793,1054.53,1027.491,1472.088,1726.748,1907.645,2850.272,3214.803,3695.392,4216.917,5062.625,NPL,28.394857,84.12400799999999,Nepal,Nepal
862.478,1239.355,1430.303,1811.73,1541.636,1313.282,1241.012,1396.005,1357.317,1504.403,1512.784,1446.739,1733.275,1506.435,1342.67,1352.563,1392.043,1456.796,1467.262,1403.347,1158.023,1061.571,1185.738,1385.851,1450.134,1817.15,2440.443,2255.68,2244.685,2982.763,1805.15,2208.212,1900.456,2768.069,2703.327,2668.632,3309.709,3146.995,3449.37,2064.942,2087.117,1942.935,1802.965,NLD,52.132633,5.291265999999999,Netherlands,Niederlande
,,,,,,,,,,,,,,,,,,,,,,,,,,,,,,,,520.681,613.288,615.424,622.246,638.142,540.419,568.798,548.455,523.963,518.585,530.034,NCL,-20.904305,165.618042,New Caledonia,Neukaledonien
,,587.162,769.614,718.416,617.473,480.669,500.16,472.745,566.675,641.183,675.354,778.07,799.041,749.902,691.324,675.231,733.459,886.574,1067.846,1244.442,1027.984,901.515,1280.308,1701.699,2208.653,2838.548,1524.352,397.862,388.374,368.726,1367.486,1796.8,1456.904,1197.128,898.259,772.558,719.587,669.61,675.933,897.577,874.842,902.799,NZL,-40.900557,174.885971,New Zealand,Neuseeland
,,,,,,,13.579,12.462,12.292,,,,,,,,,,,,,14.966,38.426,73.681,100.294,132.202,226.313,306.701,452.42,499.142,546.12,589.202,600.109,648.014,747.935,828.779,813.731,856.919,829.439,878.662,913.6,1032.072,NIC,12.865416,-85.207229,Nicaragua,Nicaragua
,,,,19.014,30.552,23.736,22.449,25.794,23.627,28.244,23.88,18.841,18.169,20.317,24.228,35.503,31.195,28.292,24.154,22.69,20.556,27.196,24.394,10.174,10.304,6.259,8.05,28.804,40.157,22.5,35.746,29.681,34.849,74.584,80.624,92.809,87.304,97.958,109.525,143.062,134.293,125.064,NER,17.607789,8.081666,Niger,Niger
,,,,,,,70.21,9.569,22.611,54.935,42.104,47.064,36.675,31.984,27.157,8.872,5.297,4.369,18.59,16.348,103.481,84.478,1219.112,810.305,1074.545,1317.24,2897.202,2414.002,1962.083,2170.94,1897.881,1891.925,1453.556,2838.747,17784.359,20119.253,19816.588,20073.07,19778.539,21112.01,20618.85,21022.374,NGA,9.081999,8.675277,Nigeria,Nigeria
,,,,,,,,,,,,,,,,,,,,,,,,,,,,,,,,,,,,,,,,,,,MNP,15.0979,145.6739,Northern Mariana Islands,Nördliche Marianen
,,,,,31.599,33.21,230.441,206.637,199.582,254.422,325.216,281.569,268.954,275.271,284.35,246.488,260.805,248.58,256.181,257.797,275.072,284.164,255.664,250.961,319.255,429.815,435.902,460.986,433.958,421.853,453.833,520.555,535.696,580.78,613.798,628.366,678.487,715.898,679.952,724.376,764.994,772.415,NOR,60.47202399999999,8.468945999999999,Norway,Norwegen
,,,,,,,,88.0,89.363,86.965,105.417,114.707,115.377,118.301,117.121,87.322,75.443,70.304,71.215,63.724,61.591,58.383,59.963,57.489,52.169,54.272,58.841,59.807,58.815,60.833,63.465,61.051,53.353,48.728,47.39,46.354,42.922,40.773,42.007,41.559,39.012,39.853,OMN,21.512583,55.923255,Oman,Oman
,,,,,,1553.724,3036.513,3979.626,4101.658,5125.463,5376.094,6836.032,7811.477,7030.252,6842.213,5440.043,4216.84,3373.506,3682.56,3277.143,2445.056,2355.012,2222.99,2577.773,2289.676,1786.878,2575.864,1797.27,1502.036,1676.805,2376.769,5561.815,5421.225,4927.554,5199.223,6084.838,6599.186,7356.814,9386.239,10322.787,12263.0,14319.442,PAK,30.375321,69.34511599999999,Pakistan,Pakistan
,,,,,,,,,,,,,,,,,,,,,,,,,,,,,,,,,,,,,,,,,,,PLW,7.514979999999999,134.58252,Palau,Palau
,,,,,,,361.072,367.173,370.664,163.204,160.468,199.419,207.492,201.58,266.99,223.26,201.895,183.997,186.382,179.19,170.666,153.248,167.077,165.046,149.773,119.955,97.013,89.25,72.84,25.581,118.92,132.394,146.061,136.023,157.434,186.668,198.372,205.163,362.011,436.774,384.1,482.743,PAN,8.537981,-80.782127,Panama,Panama
,,,,,,52.745,30.352,27.836,24.939,13.632,12.321,16.111,11.459,14.587,15.122,15.582,25.98,18.044,13.193,8.88,33.178,31.03,31.427,29.332,20.952,21.106,21.046,14.896,11.83,11.272,9.638,8.799,9.48,11.899,8.341,5.248,8.348,15.444,12.936,11.557,10.848,9.128,PNG,-6.314992999999999,143.95555,Papua New Guinea,Papua-Neuguinea
,,,,,23.146,27.547,60.933,113.982,99.426,130.413,164.109,109.35,88.204,65.377,25.89,30.465,43.899,43.071,72.107,55.211,66.94,95.63,145.404,217.949,383.525,413.721,450.513,438.583,403.408,433.63,429.152,315.336,303.747,297.527,327.138,550.38,532.386,614.371,666.738,707.345,892.61,890.832,PRY,-23.442503,-58.443832,Paraguay,Paraguay
,,,,,,,,,,,,,,,,,,,,142.11,233.66,359.174,444.205,697.023,801.016,830.782,959.565,992.179,1010.406,1119.426,1225.332,1103.885,1187.774,1414.831,1749.353,2183.334,2344.388,2553.976,2593.623,2699.383,2696.962,2870.498,PER,-9.189967,-75.015152,Peru,Peru
,,,,,,,1180.362,1355.623,1518.711,1566.959,2080.624,2770.734,2986.185,1955.87,2173.679,1914.61,1972.539,2274.284,2486.309,2393.009,2920.745,3798.264,3976.33,5086.944,7167.692,6784.024,10257.996,7866.892,10129.694,10857.9,14265.495,15234.742,14008.479,14328.004,16479.592,18121.435,17935.967,19483.696,21282.438,22826.249,23065.0,24992.937,PHL,12.879721,121.774017,Philippines,Philippinen
,,,,,,,,,,,,,,,,,,,,,,,,856.174,968.173,1077.094,1279.421,1640.853,1244.156,2333.489,2542.704,2636.933,3123.632,5905.571,7874.15,10095.057,11548.025,10918.687,8749.865,8069.671,7641.0,7066.039,POL,51.919438,19.145136,Poland,Polen
,,,,,4421.75,3488.073,4168.015,5158.161,6791.226,7430.508,7481.001,6960.259,5811.089,5992.309,5835.492,5902.63,6520.524,6350.937,6764.883,7316.181,7448.202,7126.944,6632.526,5608.509,5285.531,5273.023,5411.745,5564.359,5495.866,5450.992,5933.936,4587.29,4160.437,4127.47,3767.54,3961.692,4336.409,4239.993,3859.707,3834.248,3836.369,3980.534,PRT,39.39987199999999,-8.224454,Portugal,Portugal
,,,,,,,,,,,,,,,,,,,,,,,,,,,,,,,,,,,,,,,,,,,PRI,18.220833,-66.590149,Puerto Rico,Puerto Rico
,,,,,,,,,,,,,,,,,,,,,,,,,,,,,,,,,,,,,,,,,,,QAT,25.354826,51.183884,Qatar,Katar
,,,,,,,,,,,,,,,,,,,,,,,,16.21,12.035,25.049,24.14,75.142,144.775,149.743,188.71,223.787,169.584,164.876,5749.052,7981.987,9398.174,9804.557,5332.185,4210.078,3890.0,3749.574,ROU,45.943161,24.96676,Romania,Rumänien
,,,,,,,,,,,,,,,,,,,,,,,,6724.138,3345.681,3854.161,3420.715,2952.155,1945.348,1989.081,2282.235,2127.316,1987.138,3116.546,3658.516,3973.051,5185.774,6305.362,5770.141,5607.393,5666.64,5283.221,RUS,61.52401,105.318756,Russian Federation,Russland
,,,,,,0.934,4.101,6.589,13.076,8.464,10.145,18.96,9.124,8.017,7.725,8.936,8.664,6.86,7.22,4.293,5.6,2.76,6.042,,28.252,,7.901,0.015,,10.336,12.771,11.283,13.15,12.253,25.377,25.137,56.409,70.858,99.729,109.882,171.316,159.648,RWA,-1.940278,29.873888,Rwanda,Ruanda
,,,,,,,20.375,36.903,36.766,46.915,48.264,49.202,54.022,55.218,64.261,63.645,70.847,67.955,74.613,70.017,54.957,59.916,49.607,55.235,54.19,61.611,70.292,64.411,67.367,,,,,1.121,0.882,0.947,103.675,113.93,128.663,130.061,139.147,131.305,WSM,-13.759029,-172.104629,Samoa,Samoa
,,,,,,,,,,,,,,,,,,,,,,,,,,,,,,,,,,,,,,,,,,,SMR,43.94236,12.457777,San Marino,San Marino
,,,,,,,,0.908,1.63,1.936,2.486,1.881,2.912,8.865,0.75,0.19,0.136,0.115,0.287,0.506,,,,,,,1.207,0.767,0.845,0.723,0.901,1.248,2.491,1.374,1.822,1.901,2.2,3.135,2.154,6.779,6.881,6.639,STP,0.18636,6.613080999999999,São Tomé and Principe,São Tomé und Príncipe
,,,,,,,,,,,,,,,,,,,,,,,,,,,,,,,,,,,114.115,125.643,135.925,227.09,230.86,251.923,243.733,250.203,SAU,23.885942,45.079162,Saudi Arabia,Saudi-Arabien
,,,,37.734,103.243,173.558,149.945,169.045,153.703,192.877,177.353,175.146,156.658,146.44,214.183,242.272,227.853,211.828,205.834,232.061,256.651,262.909,261.31,167.745,195.278,209.406,227.015,226.068,280.547,364.195,495.654,539.118,698.759,790.526,958.219,1099.387,1311.25,1542.76,1454.077,1574.175,1477.678,1397.027,SEN,14.497401,-14.452362,Senegal,Senegal
,,,,,,,,,,,,,,,,,,,,,,,,,,,,,,,,,,,,,3371.42,2832.524,4238.624,3569.602,3272.453,2814.732,SRB,44.016521,21.005859,Serbia,Serbien
,,,,,,,,,,,,,,,,,,,7.776,12.258,11.557,16.105,0.445,0.437,0.674,0.98,0.33,0.175,0.282,4.927,2.913,3.098,6.64,8.504,14.7,15.767,5.242,3.305,17.361,18.512,25.513,26.476,SYC,-4.679574,55.491977,Seychelles,Seychellen
,,,,,,,,,,0.238,,0.213,0.141,0.217,0.106,,0.148,0.144,0.095,0.044,0.044,0.098,0.089,0.082,31.722,35.209,9.144,31.177,33.897,11.129,10.684,34.14,35.407,30.87,2.958,18.563,46.181,28.767,50.377,61.277,77.315,80.755,SLE,8.460555,-11.779889,Sierra Leone,Sierra Leone
,,,,,,,,,,,,,,,,,,,,,,,,,,,,,,,,,,,,,,,,,,,SGP,1.352083,103.819836,Singapore,Singapur
,,,,,,,,,,,,,,,,,,,,,,,,,,,,,,,,,,,,,,,,,,,SXM,18.08255,-63.05225100000001,Sint Maarten (Dutch part),Saint-Martin
,,,,,,,,,,,,,,,,,,,,,,,120.696,71.46,34.425,28.928,43.948,36.537,30.342,27.888,,38.227,580.993,660.821,1149.726,1292.967,1631.259,2062.285,1799.192,1695.2,1752.744,1657.73,SVK,48.669026,19.699024,Slovak Republic,Slowakei
,,,,,,,,,,,,,,,,,,,,,,57.318,80.234,402.888,363.6,388.812,364.212,349.333,340.371,320.231,326.013,338.341,325.766,331.626,321.064,335.191,354.92,363.15,298.586,329.086,433.056,547.38,SVN,46.151241,14.995463,Slovenia,Slowenien
,,,,,,,,,,,,,,,,,,,,,,,,,,,,,3.553,6.743,7.366,5.858,5.308,10.862,8.701,2.278,2.281,1.792,2.668,1.782,1.912,2.283,SLB,-9.64571,160.156194,Solomon Islands,Salomonen
,,,,,,,,,100.104,143.309,18.592,52.554,57.653,,,,,,,,,,,,,,,,,,,,,,,,,,,,,,SOM,5.152149,46.199616,Somalia,Somalia
99.547,93.827,92.098,78.295,117.005,139.761,108.491,100.104,132.827,139.642,167.952,225.899,212.498,195.493,176.511,104.391,78.972,87.478,89.557,161.64,221.487,203.839,178.505,156.318,145.543,140.846,141.862,310.642,433.969,493.628,536.119,483.798,451.297,594.047,653.057,799.298,872.284,917.1,859.939,971.533,1192.357,1212.01,1139.217,ZAF,-30.559482,22.937506,South Africa,Südafrika
,,,,,5507.179,5208.234,5094.166,5271.949,5178.636,5476.668,4722.456,4177.384,3581.382,3341.714,3329.263,3186.741,3062.61,3226.401,3397.42,3569.957,3372.724,3945.723,3568.244,3877.545,4328.499,4864.012,5322.898,6032.938,6999.684,7579.029,8286.835,8736.605,8982.249,9403.336,9670.821,10562.77,11815.735,12369.888,11168.479,11226.118,11542.708,10356.57,ESP,40.46366700000001,-3.74922,Spain,Spanien
,,,,,33.592,48.897,64.356,118.635,164.068,379.726,597.034,764.149,782.351,819.791,786.549,724.856,676.965,644.561,653.545,654.648,697.97,819.822,971.998,1053.923,1081.771,1185.054,1421.834,1569.488,1617.238,1818.479,1927.753,2048.638,1966.288,1985.473,2418.29,2595.972,2779.954,3080.477,3620.976,4426.388,5193.25,6451.608,LKA,7.873053999999999,80.77179699999999,Sri Lanka,Sri Lanka
,,,,,,,,,,1.984,2.89,2.905,2.952,3.572,2.867,23.39,21.86,21.919,35.063,31.501,2.351,2.206,23.244,25.941,27.052,29.486,33.874,37.787,39.344,42.265,45.228,44.748,40.937,39.101,40.722,43.258,44.291,46.495,46.807,55.225,52.366,42.717,KNA,17.357822,-62.782998,St. Kitts and Nevis,St. Kitts und Nevis
,,,,,,,,,,,,,1.83,,,39.944,39.537,28.567,28.058,26.317,28.003,3.082,23.716,32.098,30.831,38.119,38.054,39.752,40.031,41.243,43.708,41.907,37.434,35.786,35.788,36.013,34.26,32.883,32.807,33.606,32.05,31.668,LCA,13.909444,-60.978893,St. Lucia,Sankt Lucia
,,,,,,,,,,,,,,,,,,,,,,,,,,,,,,,,,,,,,,,,,,,MAF,18.08255,-63.05225100000001,St. Martin (French part),Saint-Martin
,,,,,,,,,,,,,,,,30.885,29.223,26.965,28.058,25.53,3.865,3.054,26.733,25.019,22.961,25.291,29.912,31.897,31.91,35.067,36.933,36.224,32.169,31.873,32.175,35.323,36.472,32.507,35.799,35.451,33.867,36.446,VCT,13.2533835,-61.196251,St. Vincent and the Grenadines,Sankt Vincent und die Grenadinen
,,,,,,,140.992,209.661,349.331,656.32,998.678,351.588,729.175,775.727,703.367,251.99,266.521,391.702,760.74,101.111,71.677,185.124,115.586,157.972,462.958,308.266,633.072,1052.906,1003.016,999.532,1203.189,1530.031,1673.414,1752.373,854.942,951.555,1099.913,1662.444,2299.25,1171.964,441.931,1150.989,SDN,12.862807,30.217636,Sudan,Sudan
,,,,,,,10.794,14.286,14.75,15.019,15.865,10.565,15.94,16.072,12.136,3.78,4.061,5.046,3.651,0.817,6.473,6.884,5.38,0.295,,,0.604,,3.469,,0.325,23.631,32.139,11.366,4.738,2.495,3.081,2.299,5.169,4.581,3.894,3.725,SUR,3.919305,-56.027783,Suriname,Suriname
,,,,15.65,31.3,36.887,42.044,43.343,46.077,88.388,103.86,98.275,140.933,143.471,128.237,122.326,152.541,170.822,200.389,184.285,171.525,165.66,127.171,113.57,110.393,105.084,126.494,120.246,105.598,88.731,86.02,69.905,89.203,103.419,115.929,117.185,110.522,93.685,100.633,58.262,54.69,47.925,SWZ,-26.522503,31.465866,Swaziland,Swasiland
37.486,71.417,68.77,79.035,89.822,102.748,156.167,210.672,147.988,127.253,165.176,175.934,0.36,65.185,61.238,62.953,40.994,189.873,188.014,232.323,249.109,326.721,347.485,355.626,367.402,384.54,419.225,520.017,192.551,548.925,682.895,940.597,801.434,847.522,845.083,818.049,805.402,812.064,815.467,701.535,732.664,776.073,737.805,SWE,60.12816100000001,18.643501,Sweden,Schweden
,,,,,,,1412.445,1631.931,1618.14,1523.649,1151.935,1392.029,1464.34,1350.617,1344.526,1448.751,1506.947,1488.943,1378.437,1508.744,1558.643,1563.373,1617.642,1786.199,1970.03,1934.819,1823.002,1881.591,1842.158,1745.998,2116.026,2147.288,2333.312,2360.034,2336.694,2381.239,2297.187,2659.284,2859.044,3013.502,3306.691,3184.617,CHE,46.818188,8.227511999999999,Switzerland,Schweiz
,,,,,,,321.901,1932.827,2462.169,1936.17,1133.94,1084.786,1026.833,875.511,942.826,718.257,645.91,648.766,784.958,628.879,552.573,823.107,541.039,788.388,453.33,435.569,359.083,337.372,298.597,280.767,276.558,211.268,1215.81,1067.949,999.757,944.629,1265.753,1463.225,1668.87,2214.274,2078.539,2124.426,SYR,34.80207499999999,38.996815,Syrian Arab Republic,Syrien
,,,,,,,,,,,,,,,,,,,,,,,,,,,,,,,,122.946,199.705,314.767,566.876,1210.603,1860.227,2658.881,1882.365,2456.404,3059.872,3822.044,TJK,38.861034,71.276093,Tajikistan,Tadschikistan
,,,,,,,,0.394,,,,,,,,,,,,,,,,,1.124,26.883,2.393,17.636,10.858,12.479,24.814,18.779,12.172,17.235,23.526,18.276,28.013,38.482,42.885,58.625,75.765,77.008,TZA,-6.369028,34.888822,Tanzania,Tansania
,,,,,72.382,90.64,156.855,317.304,515.271,959.021,1242.821,1634.274,2247.713,2433.362,2365.854,1768.362,1628.032,1670.128,1721.811,1589.749,1609.347,665.317,1708.714,1887.594,2267.023,2513.15,2502.122,2184.43,2201.981,2646.678,2037.494,2159.617,2198.236,2025.826,1442.051,1583.975,1798.919,1983.633,2989.231,3814.156,3994.458,4214.934,THA,15.870032,100.992541,Thailand,Thailand
,,,,,,,,,,,,,,,,,,,,,,,,,,,,,,,,,,,,,,,,,,,TLS,-8.874217,125.727539,Timor-Leste,Timor-Leste
,,,,18.241,18.708,26.736,27.948,28.367,21.739,24.868,20.454,16.148,16.147,18.004,41.546,47.639,38.763,38.275,41.739,43.898,45.739,24.312,18.011,22.555,20.088,40.873,39.619,28.479,34.477,53.399,111.441,161.522,203.347,223.604,233.844,275.866,312.96,352.278,360.189,358.578,336.597,327.793,TGO,8.619543,0.824782,Togo,Togo
,4.843,3.318,10.168,20.0,26.264,20.281,19.296,,,,,21.446,43.771,36.676,58.984,46.409,43.295,29.937,27.141,39.135,29.625,31.928,32.221,,,,,,,,85.461,103.826,82.596,86.549,83.704,93.779,111.486,98.511,76.995,76.175,71.506,75.98,TON,-21.178986,-175.198242,Tonga,Tonga
,,,,,10.306,6.197,4.933,4.306,3.87,15.019,11.053,12.986,12.841,9.988,8.916,0.371,4.083,3.094,5.927,5.535,8.173,9.824,30.045,39.471,42.134,39.14,45.564,68.345,82.039,59.429,66.537,123.787,118.709,108.544,112.245,108.365,120.365,98.767,117.691,96.836,90.9,96.717,TTO,10.691803,-61.222503,Trinidad and Tobago,Trinidad und Tobago
,,,,,,536.852,584.442,671.924,772.819,797.383,937.495,983.749,955.036,862.627,730.373,772.947,886.812,897.067,821.094,900.104,828.133,795.291,686.028,926.519,909.179,1023.601,1032.748,1101.591,1147.999,1241.543,1508.294,1674.982,1709.866,1787.848,1691.779,1794.248,1887.73,2066.225,2115.31,2198.034,2004.499,2246.676,TUN,33.886917,9.537499,Tunisia,Tunesien
,,,,6318.121,5147.117,3705.66,3419.22,2987.842,4627.151,5183.98,6475.943,5652.404,4019.66,4922.364,4622.438,3633.533,3908.335,3200.577,5591.457,5302.189,4450.584,4501.646,4486.628,3871.205,4449.051,4929.029,6332.227,8213.464,6836.073,7112.775,4532.292,3029.734,996.991,1004.247,1077.502,1361.692,1373.088,1542.642,1130.613,1057.846,1087.0,961.155,TUR,38.963745,35.243322,Turkey,Türkei
,,,,,,,,,,,,,,,,,,,,,,,,,,6.151,,,,,,,,,,,,,,,,,TKM,38.969719,59.556278,Turkmenistan,Turkmenistan
,,,,,,,,,,,,,,,,,,,,,,,,,,,,,,,,,,,,,,,,,,,TCA,21.694025,-71.797928,Turks and Caicos Islands,Turks- und Caicosinseln
,,,,,,,,,,,,,,,,,,,,,,,,,,,,,,,,,,,,,,,,,,,TUV,-10.7280717,179.4726562,Tuvalu,Tuvalu
,,,,,,,,,,,,,,,,,,,,,,,,,,,,,350.777,371.393,567.065,691.44,408.623,387.875,390.924,488.356,496.833,756.188,838.088,818.153,948.643,998.161,UGA,1.373333,32.290275,Uganda,Uganda
,,,,,,,,,,,,,,,,,,,,,,,,,,8.35,18.105,18.402,27.145,51.474,229.38,327.074,451.313,513.365,722.789,985.029,4954.34,6029.473,5462.474,5973.154,6716.0,6643.841,UKR,48.379433,31.16558,Ukraine,Ukraine
,,,,,,,,,,,,,,,,,,,,,,,,,,,,,,,,,,,,,,,,,,,ARE,23.424076,53.847818,United Arab Emirates,Vereinigte Arabische Emirate
,,,,,,,,,,,,,,,,,2647.656,2931.006,3075.192,3428.707,3298.258,3043.01,2717.632,2901.38,3301.708,3505.491,4349.726,4592.627,5127.614,5636.46,7849.253,7017.859,6877.811,7387.737,7655.66,8024.61,8673.454,8217.116,7808.416,7881.888,8078.461,8515.863,GBR,55.378051,-3.435973,United Kingdom,Großbritannien
,,,,,,,696.379,668.693,628.244,200.25,208.062,211.305,212.54,217.924,215.75,2019.124,1922.259,1793.116,1861.993,1911.14,2052.416,2687.818,2797.418,2863.248,2913.881,3035.068,3424.864,3737.157,6403.257,6855.405,7341.793,7151.8,6389.497,5913.065,5824.83,5956.511,5612.279,5414.925,5573.382,5621.604,5437.0,4622.642,USA,37.09024,-95.712891,United States,USA
,,,,,,,,,11.472,,,,,,,,,,,,,,,,,,,,,,0.01,56.421,84.455,87.305,93.222,105.671,106.146,112.784,108.833,109.589,101.523,100.694,URY,-32.522779,-55.765835,Uruguay,Uruguay
,,,,,,,,,,,,,,,,,,,,,,,,,,,,,,,,,,,,,,,,,,,UZB,41.377491,64.585262,Uzbekistan,Usbekistan
,,,,,,,,,,,,24.709,18.983,23.067,23.557,17.84,16.366,14.434,13.362,13.413,14.302,21.085,18.511,26.701,18.063,49.499,23.429,33.135,39.158,54.071,85.738,6.412,5.464,6.158,6.192,5.929,6.099,9.309,12.374,12.537,21.766,19.813,VUT,-15.376706,166.959158,Vanuatu,Vanuatu
,,,,,,,,,,,,,,,2.697,,,,,1.633,3.158,2.993,3.074,2.947,2.675,5.566,25.649,26.07,25.637,26.517,30.909,29.734,284.464,178.616,179.786,196.055,166.135,143.186,141.057,152.338,138.0,128.601,VEN,6.42375,-66.58973,"Venezuela, RB",Venezuela
,,,,,,,,,,,,,,,,,,,,,,,,,,,,,,2090.158,1789.491,2769.953,2871.991,2885.336,3826.531,4515.209,6799.428,7112.249,6482.179,8799.403,8600.0,10220.769,VNM,14.058324,108.277199,Vietnam,Vietnam
,,,,,,,,,,,,,,,,,,,,,,,,,,,,,,,,,,,,,,,,,,,VIR,18.335765,-64.896335,Virgin Islands (U.S.),Jungferninseln
,,,,,,,,,,,,,,,,,,,,,,,,,778.417,754.662,940.404,1657.516,1682.774,1575.112,1734.811,1620.604,782.102,796.851,856.82,1103.036,1193.668,1283.358,1302.834,1646.186,1545.275,1579.389,PSE,31.952162,35.233154,West Bank and Gaza,Palestinian Territories
,,,,,,,,,,,,,,,,,,,,2447.239,1576.097,1523.795,1596.373,1561.008,1444.905,1578.764,1763.126,1843.889,1844.669,2009.047,2106.088,2025.039,1736.734,1602.047,1558.065,1524.002,1453.955,1474.185,1249.058,1625.652,1403.92,1519.908,YEM,15.552727,48.516388,"Yemen, Rep.",Jemen
,,,,,,,,,,,,,,,,,,,,,,,,,,,,,,,,,49.644,60.455,64.261,68.56,65.244,71.279,44.428,46.554,46.3,46.557,ZMB,-13.133897,27.849332,Zambia,Sambia
,,,,,,,61.439,39.186,52.984,42.282,73.588,86.887,51.956,10.369,1.671,1.746,2.21,2.492,1.3,1.386,0.552,0.88,1.73,64.376,,,,,,,,,,,,,,,,,,,ZWE,-19.015438,29.154857,Zimbabwe,Simbabwe
